{
  "downtown": {
      "wagon":{
        "title" : "Off The Wagon",
        "type"  : "downtown",
        "website" : "http://www.offthewagonshop.com/",
        "address" : "152 E. Main Street, Kent, OH 44240",
        "phone" : "330-474-1330",
        "images" : "/downtown/wagon.png",
        "latitude" : 41.154204,
        "longtitude" : -81.357319
      },
      "balloonfun":{
        "title" : "America's Unknown Destinations",
        "type"  : "downtown",
        "website" : "http://www.balloonfun.net/",
        "address" : "4187 Lynwood Road, Kent, OH",
        "phone" : "330-673-4180",
        "images" : "/downtown/balloonfun.png",
        "latitude" : 41.154204,
        "longtitude" : -81.357319
      },
      "kent_stage":{
        "title" : "The Kent Stage",
        "type"  : "downtown",
        "website" : "http://www.balloonfun.net/",
        "address" : "175 East Main Street, Kent, OH 44240",
        "phone" : "330-677-5005",
        "images" : "/downtown/kent_stage.png",
        "latitude" : 41.154204,
        "longtitude" : -81.357319
      },

      "downtown_gallery":{
        "title" : "Downtown Gallery",
        "type"  : "downtown",
        "website" : "http://art.kent.edu/galleries/secondary/downtown/downtown.html",
        "address" : "141 E. Main St, Kent OH 44240",
        "phone" : "(330) 6676-1549",
        "images" : "/downtown/downtown_gallery.png",
        "latitude" : 41.154204,
        "longtitude" : -81.357319
      }
   },


  "restaurants": {
    "rays_place": {
      "title" : "Ray's Place",
      "type"  : "restaurants",
      "website" : "http://www.raysplacekent.com/",
      "address" : "135 Franklin Ave, Kent, OH 44240",
      "phone" : "(330) 673-2233",
      "images" : "/restaurants/rays_place/rays_place.png",
      "latitude" : 41.153149,
      "longtitude" : -81.358702
    },
    "buffalo": {
      "title" : "Buffalo Wings",
      "type"  : "restaurants",
      "website" : "http://www.buffalowildwings.com/",
      "address" : "176 E Main St, Kent, OH 44240",
      "phone" : "(330) 678-9464",
      "images" : "/restaurants/buffalo/buffalo.png",
      "latitude" : 41.153516,
      "longtitude" : -81.356653
    },
    "mexican_grill": {
      "title" : "Fresco Mexican Grill & Salsa Bar",
      "type"  : "restaurants",
      "website" : "http://www.getfresco.com/",
      "address" : "100 E. Erie St., Kent, OH 44240",
      "phone" : "(330) 677-2588",
      "images" : "/restaurants/mexican_grill/mexican_grill.png",
      "latitude" : 41.152511,
      "longtitude" : -81.357542
    }
  },






  "apartments": {
     "eagles_landing": {
      "title" : "Eagles Landing",
      "type"  : "apartments",
      "website" : "http://www.kentapartments.com/",
      "address" : "609 S Lincoln St,Unit F,Kent,Ohio 44240",
      "phone" : "(330) 673-8300",
      "images" : "/apartments/eagles_landing.png",
      "latitude" : 41.145452,
      "longtitude" : -81.349347
    },
    "the_province": {
      "title" : "The Province",
      "type"  : "apartments",
      "website" : "http://www.theprovincekent.com/",
      "address" : "936 Morris Rd. Kent, OH 44240",
      "phone" : "(330) 673-8887",
      "images" : "/apartments/the_province.png",
      "latitude" : 41.145452,
      "longtitude" : -81.349347
    },
     "oaks": {
      "title" : "University Oaks",
      "type"  : "apartments",
      "website" : "http://www.universityoaks-kent.com",
      "address" : "500 Golden Oaks Dr, Kent, OH 44240",
      "phone" : "(330) 403-4131",
      "images" : "/apartments/oaks.png",
      "latitude" : 41.145452,
      "longtitude" : -81.349347
    }, 
    "holly_park": {
      "title" : "Holly Park",
      "type"  : "apartments",
      "website" : "http://www.kentapartments.com",
      "address" : "1652 Mulberry Ct, Kent, OH 44240",
      "phone" : "(330) 678-0823",
      "images" : "/apartments/holly_park.png",
      "latitude" : 41.145452,
      "longtitude" : -81.349347
    },
    "campus_pointe": {
      "title" : "Campus Pointe",
      "type"  : "apartments",
      "website" : "http://campuspointekent.com/",
      "address" : "1841 ASHTON LANE Kent, OH 44240",
      "phone" : "(330) 673-2202",
      "images" : "/apartments/campus_pointe.png",
      "latitude" : 41.145452,
      "longtitude" : -81.349347
    }
    
  },


  "sports": {
    "stadium": {
      "title" : "Dix Stadium",
      "type"  : "sports",
      "website" : "http://www.kent.edu/tags/dix-stadium",
      "address" : " 2213 Summit Rd, Kent, OH 44242",
      "phone" : "(330) 672-2078",
      "images" : "/sports/stadium.jpg",
      "latitude" : 41.140079,
      "longtitude" : -81.314474
    },

    "rec_center": {
      "title" : "Recreational Services",
      "type"  : "sports",
      "website" : "http://www.kent.edu/recservices",
      "address" : "1550 Ted Boyd Drive, Kent, Ohio 44242",
      "phone" : "(330) 672-4732",
      "images" : "/sports/rec_center.png",
      "latitude" : 41.140079,
      "longtitude" : -81.314474
    }, 
    "ice_arean": {
      "title" : "Ice Arena",
      "type"  : "sports",
      "website" : "http://www.kent.edu/recservices/ice-arena",
      "address" : "650 Loop Road, Kent, Ohio 44240",
      "phone" : "(330) 672-7465",
      "images" : "/sports/ice_arean.png",
      "latitude" : 41.140079,
      "longtitude" : -81.314474
    }, 

     "golf": {
      "title" : "(Golf) Sunny Hill",
      "type"  : "sports",
      "website" : "http://www.sunnyhillgolfcourse.com/",
      "address" : "3734 Sunny Brook Road, Kent, Ohio 44240",
      "phone" : "(330) 673-1785",
      "images" : "/sports/golf.png",
      "latitude" : 41.140079,
      "longtitude" : -81.314474
    },
    "basketball" : {
      "title" : "Basketball",
      "type"  : "sports",
      "website" : "http://www.kentstatemensbasketballcamps.com",
      "address" : "MAC Center Kent State University",
      "phone" : "(330) 672-2495",
      "images" : "/sports/basketball.png",
      "latitude" : 41.140079,
      "longtitude" : -81.314474
    }
    
  },

  "ksu": {
    "visitor_center":{
        "title" : "May 4th Visitor Center",
        "type"  : "ksu",
        "website" : "http://www.kent.edu/may4",
        "address" : "Taylor Hall, Kent OH 44240",
        "phone" : "unavailable",
        "images" : "/ksu/may4.png",
        "latitude" : 41.154204,
        "longtitude" : -81.357319
    },
    
    "ksu_museum":{
        "title" : "Kent State University Museum",
        "type"  : "ksu",
        "website" : "http://www2.kent.edu/museum/about/index.cfm#_=_",
        "address" : "515 Hilltop Drive, Kent, OH",
        "phone" : "unavailable",
        "images" : "/ksu/ksu_museum.png",
        "latitude" : 41.154204,
        "longtitude" : -81.357319
    },
    "library": {
      "title" : "Kent State Library",
      "type"  : "ksu",
      "website" : "http://www.library.kent.edu/",
      "address" : "1125 Risman Dr., Kent, OH 44242",
      "phone" : "(330) 672-3456",
      "images" : "/ksu/library.jpg",
      "latitude" : 41.146733,
      "longtitude" : -81.342439
    },
    "stone": {
      "title" : "Graffiti Stone",
      "type"  : "ksu",
      "website" : "http://www.kent.edu/",
      "address" : "800 E Summit St Kent, OH 44240",
      "phone" : "unavailable",
      "images" : "/ksu/stone.png",
      "latitude" : 41.146733,
      "longtitude" : -81.342439
    }
  },

  "hotels": {
    "kent_hotel": {
      "title" : "Kent Hotel and Conference Center",
      "type"  : "hotels",
      "website" : "http://www.kentstatehotel.com/",
      "address" : "215 S Depeyster St, Kent, Ohio 44240",
      "phone" : "(330) 346-0100",
      "images" : "/hotels/kent_hotel/kent_hotel.jpg",
      "latitude" : 41.152553,
      "longtitude" : -81.356137
    }

  },

  "events" : {
    "dinner_tasting": {
      "title" : "Rum Tasting and Caribbean Dinner Tasting",
      "website" : "http://www.mainstreetkent.org/calendar-of-events/4556283983",
      "address" : "Secret Cellar, 176 East Main Street, Kent, OH 44240",
      "phone" : "(330) 678-9463",
      "time": "April 23, 18:00 - 20:30",
      "images" : "",
      "latitude" : 41.153737,
      "longtitude" : -81.356696
    },
    "beer_release": {
      "title" : "Its Raining Beer Release & Tasting",
      "website" : "http://www.mainstreetkent.org/calendar-of-events/4556283983",
      "address" : "Secret Cellar, 176 East Main Street, Kent, OH 44240",
      "phone" : "(330) 678-9463",
      "time": "April 24, 18:00 - 21:00",
      "images" : "",
      "latitude" : 41.153737,
      "longtitude" : -81.356696
    },
    "mama_festival": {
      "title" : "Who's Your Mama Festival",
      "website" : "http://www.mainstreetkent.org/calendar-of-events/4556283983",
      "address" : "Main Street Kent OH 44240",
      "phone" : "unavailable",
      "time": "",
      "images" : "",
      "latitude" : 41.153692,
      "longtitude" : -81.339845
    }
  }
}
